,City_ID,City,Lat,Lng,Max Temp,Humidity,Cloudiness,Wind Speed,Country,Date,Current description
0,0,Provideniya,64.3833,-173.3,51.91,66,75,11.18,RU,2022-09-08 02:36:51,broken clouds
3,3,Havoysund,70.9963,24.6622,48.43,95,100,24.27,NO,2022-09-08 02:36:52,overcast clouds
5,5,Barrow,71.2906,-156.7887,41.02,87,100,10.36,US,2022-09-08 02:36:53,overcast clouds
6,6,Albany,42.6001,-73.9662,62.67,93,34,2.59,US,2022-09-08 02:36:30,scattered clouds
10,10,Puerto Ayora,-0.7393,-90.3518,68.56,93,99,7.0,EC,2022-09-08 02:36:55,overcast clouds
12,12,Port Elizabeth,-33.918,25.5701,58.32,89,0,6.91,ZA,2022-09-08 02:36:56,clear sky
14,14,Narimanov,46.6927,47.8498,48.11,47,3,2.24,RU,2022-09-08 02:36:57,clear sky
16,16,Port Alfred,-33.5906,26.891,59.86,85,6,2.35,ZA,2022-09-08 02:36:58,clear sky
23,23,Hermanus,-34.4187,19.2345,53.8,86,5,7.16,ZA,2022-09-08 02:37:01,clear sky
27,27,Tasiilaq,65.6145,-37.6368,41.16,99,100,1.01,GL,2022-09-08 02:37:04,light rain
32,32,Los Llanos De Aridane,28.6585,-17.9182,67.75,85,0,10.36,ES,2022-09-08 02:37:06,clear sky
33,33,Bluff,-46.6,168.3333,50.81,58,50,2.82,NZ,2022-09-08 02:37:07,scattered clouds
34,34,Busselton,-33.65,115.3333,56.79,67,100,7.14,AU,2022-09-08 02:37:07,overcast clouds
36,36,Arraial Do Cabo,-22.9661,-42.0278,68.05,80,0,28.12,BR,2022-09-08 02:37:08,clear sky
39,39,Copiapo,-27.3667,-70.3333,49.69,78,100,2.39,CL,2022-09-08 02:32:52,overcast clouds
40,40,Esmeraldas,-19.7625,-44.3139,62.91,77,0,6.76,BR,2022-09-08 02:37:11,clear sky
41,41,Saint-Philippe,-21.3585,55.7679,69.39,80,45,10.6,RE,2022-09-08 02:37:11,scattered clouds
42,42,Ancud,-41.8697,-73.8203,42.22,91,99,2.13,CL,2022-09-08 02:37:12,light rain
45,45,Luau,-10.7073,22.2247,65.68,27,1,5.14,AO,2022-09-08 02:37:13,clear sky
46,46,Grande Prairie,55.1667,-118.8027,57.38,51,75,20.71,CA,2022-09-08 02:37:14,broken clouds
47,47,Saint-Augustin,51.226,-58.6502,55.56,70,99,5.46,CA,2022-09-08 02:37:14,overcast clouds
48,48,Mataura,-46.1927,168.8643,50.49,60,38,0.38,NZ,2022-09-08 02:38:15,scattered clouds
49,49,Nikolskoye,59.7035,30.7861,45.79,95,59,4.47,RU,2022-09-08 02:38:15,broken clouds
50,50,Cape Town,-33.9258,18.4232,56.91,86,0,18.41,ZA,2022-09-08 02:35:27,clear sky
51,51,Yulara,-25.2406,130.9889,68.97,25,0,14.81,AU,2022-09-08 02:38:16,clear sky
54,54,Chongwe,-15.3292,28.682,60.58,62,0,7.07,ZM,2022-09-08 02:38:18,clear sky
56,56,Dumbrava,44.8833,26.1833,62.65,91,23,2.3,RO,2022-09-08 02:38:19,few clouds
57,57,Port Hardy,50.6996,-127.4199,60.98,67,20,8.05,CA,2022-09-08 02:36:34,few clouds
61,61,Iqaluit,63.7506,-68.5145,42.53,81,75,11.5,CA,2022-09-08 02:36:53,broken clouds
65,65,Huarmey,-10.0681,-78.1522,60.78,86,19,11.74,PE,2022-09-08 02:38:23,few clouds
66,66,Mar Del Plata,-38.0023,-57.5575,59.95,76,0,9.22,AR,2022-09-08 02:38:24,clear sky
69,69,Cherskiy,68.75,161.3,60.75,33,100,21.77,RU,2022-09-08 02:38:26,overcast clouds
70,70,Marica,-22.9194,-42.8186,69.71,78,0,10.67,BR,2022-09-08 02:38:26,clear sky
72,72,Bethel,41.3712,-73.414,68.36,82,98,1.01,US,2022-09-08 02:35:32,overcast clouds
79,79,Thompson,55.7435,-97.8558,59.16,72,100,2.3,CA,2022-09-08 02:36:39,overcast clouds
80,80,Saskylakh,71.9167,114.0833,40.08,64,68,6.76,RU,2022-09-08 02:38:31,broken clouds
82,82,Derzhavinsk,51.1,66.3167,54.05,43,100,4.23,KZ,2022-09-08 02:38:32,overcast clouds
85,85,Roald,62.5833,6.1333,54.75,93,100,4.61,NO,2022-09-08 02:38:34,overcast clouds
86,86,Quatre Cocos,-20.2078,57.7625,68.11,69,89,10.2,MU,2022-09-08 02:38:34,light rain
87,87,Constitucion,-35.3333,-72.4167,46.98,83,94,7.0,CL,2022-09-08 02:38:35,overcast clouds
89,89,Cervo,43.6702,-7.4101,64.94,83,100,7.31,ES,2022-09-08 02:38:36,overcast clouds
90,90,Bredasdorp,-34.5322,20.0403,47.07,93,29,0.85,ZA,2022-09-08 02:38:36,scattered clouds
91,91,Mahebourg,-20.4081,57.7,68.29,73,75,3.44,MU,2022-09-08 02:38:37,broken clouds
92,92,Coquimbo,-29.9533,-71.3436,53.33,76,100,5.75,CL,2022-09-08 02:38:37,overcast clouds
100,100,Vestmannaeyjar,63.4427,-20.2734,53.47,84,99,6.69,IS,2022-09-08 02:39:41,overcast clouds
101,101,Puerto Leguizamo,-0.1934,-74.7819,69.94,83,75,1.54,CO,2022-09-08 02:39:42,broken clouds
104,104,Jamestown,42.097,-79.2353,64.18,70,100,3.44,US,2022-09-08 02:39:43,overcast clouds
105,105,Fortuna,40.5982,-124.1573,65.91,80,16,1.01,US,2022-09-08 02:36:43,few clouds
112,112,Hobart,-42.8794,147.3294,58.86,82,75,12.66,AU,2022-09-08 02:37:06,broken clouds
113,113,Castro,-24.7911,-50.0119,55.71,94,0,4.03,BR,2022-09-08 02:39:48,clear sky
114,114,Almaznyy,48.0448,40.045,46.69,52,5,2.1,RU,2022-09-08 02:39:48,clear sky
115,115,Bure,10.7,37.0667,55.0,95,80,0.54,ET,2022-09-08 02:39:49,light rain
116,116,Asau,46.4333,26.4,49.28,91,12,5.03,RO,2022-09-08 02:39:49,few clouds
117,117,Nome,64.5011,-165.4064,53.17,76,0,10.36,US,2022-09-08 02:39:50,clear sky
118,118,Vila Velha,-20.3297,-40.2925,67.95,83,20,3.44,BR,2022-09-08 02:39:50,few clouds
123,123,Mari,-7.06,-35.3194,68.81,87,0,7.61,BR,2022-09-08 02:39:53,clear sky
124,124,Yellowknife,62.456,-114.3525,48.72,76,75,9.22,CA,2022-09-08 02:35:10,broken clouds
126,126,Cap Malheureux,-19.9842,57.6142,67.46,70,87,12.84,MU,2022-09-08 02:39:54,overcast clouds
127,127,Codrington,-38.2667,141.9667,56.52,94,100,16.71,AU,2022-09-08 02:39:55,light rain
131,131,Akdepe,42.0551,59.3788,57.29,32,71,17.83,TM,2022-09-08 02:39:57,broken clouds
133,133,Anadyr,64.75,177.4833,50.5,57,0,8.95,RU,2022-09-08 02:39:58,clear sky
135,135,Rawson,-43.3002,-65.1023,43.61,62,83,10.96,AR,2022-09-08 02:40:00,broken clouds
136,136,Tuktoyaktuk,69.4541,-133.0374,42.8,93,100,10.36,CA,2022-09-08 02:40:00,mist
139,139,Palmer,42.1584,-72.3287,66.61,81,75,0.0,US,2022-09-08 02:40:03,broken clouds
140,140,New Norfolk,-42.7826,147.0587,58.5,71,100,1.99,AU,2022-09-08 02:41:03,overcast clouds
141,141,Mgandu,-5.95,34.1333,58.71,72,49,8.95,TZ,2022-09-08 02:41:04,scattered clouds
144,144,Dunapataj,46.644,18.9963,65.75,71,52,5.32,HU,2022-09-08 02:41:05,broken clouds
146,146,Alvaro Obregon,19.3733,-99.225,63.99,76,100,6.91,MX,2022-09-08 02:41:07,overcast clouds
147,147,Dunedin,-45.8742,170.5036,49.8,70,29,1.01,NZ,2022-09-08 02:41:09,scattered clouds
149,149,Narsaq,60.9167,-46.05,44.82,80,94,3.15,GL,2022-09-08 02:41:11,overcast clouds
151,151,East London,-33.0153,27.9116,60.44,82,13,4.14,ZA,2022-09-08 02:41:13,few clouds
155,155,Pevek,69.7008,170.3133,46.58,53,21,22.3,RU,2022-09-08 02:41:15,few clouds
161,161,Dois Vizinhos,-25.7336,-53.0572,57.92,97,51,3.15,BR,2022-09-08 02:40:59,broken clouds
164,164,Caernarfon,53.1413,-4.2702,58.73,77,75,8.05,GB,2022-09-08 02:41:20,broken clouds
165,165,Raymond,43.9015,-70.4703,59.02,86,79,1.97,US,2022-09-08 02:41:21,broken clouds
167,167,Birao,10.2849,22.7882,69.49,98,100,5.86,CF,2022-09-08 02:41:22,moderate rain
169,169,Te Anau,-45.4167,167.7167,46.09,76,47,1.01,NZ,2022-09-08 02:41:24,scattered clouds
170,170,Bose,45.4612,8.0137,66.29,96,100,1.14,IT,2022-09-08 02:41:24,overcast clouds
173,173,Chokurdakh,70.6333,147.9167,57.6,39,100,13.27,RU,2022-09-08 02:41:26,overcast clouds
174,174,Ribeirao Bonito,-22.0667,-48.1761,69.48,55,11,8.88,BR,2022-09-08 02:41:27,few clouds
176,176,Tuatapere,-46.1333,167.6833,51.01,63,23,3.31,NZ,2022-09-08 02:41:28,few clouds
177,177,Agadir,30.4202,-9.5982,64.85,80,8,2.53,MA,2022-09-08 02:41:29,clear sky
178,178,Sitka,57.0531,-135.33,60.69,72,75,10.36,US,2022-09-08 02:41:29,broken clouds
179,179,Kruisfontein,-34.0033,24.7314,51.94,75,4,4.52,ZA,2022-09-08 02:41:30,clear sky
180,180,College,64.8569,-147.8028,60.75,66,75,3.44,US,2022-09-08 02:41:31,broken clouds
183,183,Imbituba,-28.24,-48.6703,66.85,97,61,9.84,BR,2022-09-08 02:41:32,broken clouds
185,185,Norman Wells,65.282,-126.8329,55.44,50,75,6.91,CA,2022-09-08 02:41:33,broken clouds
189,189,Beyneu,45.3167,55.2,63.43,35,62,4.03,KZ,2022-09-08 02:41:18,broken clouds
192,192,Whitehorse,60.7161,-135.0538,63.37,34,75,14.97,CA,2022-09-08 02:42:37,broken clouds
193,193,Athabasca,54.7169,-113.2854,59.41,52,42,9.66,CA,2022-09-08 02:42:38,scattered clouds
197,197,Nanortalik,60.1432,-45.2371,43.09,93,36,4.16,GL,2022-09-08 02:42:40,scattered clouds
198,198,Tiksi,71.6872,128.8694,43.74,77,100,10.4,RU,2022-09-08 02:42:40,overcast clouds
201,201,Pshekhskaya,44.696,39.7967,45.54,67,40,2.57,RU,2022-09-08 02:42:42,scattered clouds
205,205,Barabinsk,55.3571,78.357,49.64,64,14,18.9,RU,2022-09-08 02:42:44,few clouds
206,206,Saint-Joseph,-21.3667,55.6167,67.21,77,22,10.51,RE,2022-09-08 02:42:45,few clouds
208,208,Geraldton,-28.7667,114.6,57.61,94,91,6.91,AU,2022-09-08 02:42:46,overcast clouds
210,210,Ust-Maya,60.4167,134.5333,42.98,94,100,11.95,RU,2022-09-08 02:42:47,light rain
212,212,Klaksvik,62.2266,-6.589,56.32,99,100,17.29,FO,2022-09-08 02:42:48,light rain
213,213,Burns Lake,54.2331,-125.7533,54.82,75,68,6.93,CA,2022-09-08 02:42:49,broken clouds
214,214,Paamiut,61.994,-49.6678,40.8,83,100,10.65,GL,2022-09-08 02:42:50,overcast clouds
216,216,Atasu,48.6814,71.6433,56.05,31,99,5.48,KZ,2022-09-08 02:42:51,overcast clouds
217,217,Ola,59.5833,151.2833,55.15,92,100,17.6,RU,2022-09-08 02:42:51,moderate rain
219,219,Broome,42.2506,-75.833,65.46,89,100,0.0,US,2022-09-08 02:42:52,overcast clouds
221,221,Rio Grande,-32.035,-52.0986,53.94,89,41,4.99,BR,2022-09-08 02:42:53,scattered clouds
222,222,Egvekinot,66.3167,-179.1667,40.42,67,0,0.81,RU,2022-09-08 02:42:54,clear sky
226,226,Waipawa,-41.4122,175.5153,49.93,76,83,3.13,NZ,2022-09-08 02:42:56,broken clouds
228,228,Inhambane,-23.865,35.3833,67.59,65,57,5.28,MZ,2022-09-08 02:42:57,broken clouds
229,229,Mehamn,71.0357,27.8492,48.15,93,100,16.11,NO,2022-09-08 02:42:58,overcast clouds
231,231,Narrabri,-30.3167,149.7833,67.51,52,100,8.01,AU,2022-09-08 02:43:59,moderate rain
234,234,Asfi,32.2994,-9.2372,68.34,85,4,13.73,MA,2022-09-08 02:44:00,clear sky
236,236,Albanel,48.8832,-72.4487,60.94,94,96,3.44,CA,2022-09-08 02:44:01,overcast clouds
237,237,Chumikan,54.7183,135.315,59.25,50,98,19.46,RU,2022-09-08 02:44:02,overcast clouds
238,238,Beringovskiy,63.05,179.3167,45.54,64,5,4.32,RU,2022-09-08 02:44:02,clear sky
239,239,Grand Gaube,-20.0064,57.6608,68.4,70,91,12.95,MU,2022-09-08 02:44:02,overcast clouds
243,243,Torbay,47.6666,-52.7314,54.39,91,100,14.97,CA,2022-09-08 02:44:05,light intensity shower rain
244,244,Pisco,-13.7,-76.2167,59.05,88,100,14.97,PE,2022-09-08 02:42:40,overcast clouds
247,247,Souillac,-20.5167,57.5167,68.38,73,75,3.44,MU,2022-09-08 02:44:07,broken clouds
248,248,Zyryanka,65.75,150.85,64.85,46,68,28.1,RU,2022-09-08 02:44:07,broken clouds
249,249,Slave Lake,55.2834,-114.769,60.78,48,0,17.27,CA,2022-09-08 02:44:08,clear sky
251,251,Namibe,-15.1961,12.1522,64.17,94,68,4.14,AO,2022-09-08 02:44:09,broken clouds
254,254,Cidreira,-30.1811,-50.2056,60.28,90,0,4.92,BR,2022-09-08 02:44:11,clear sky
255,255,Goulburn,-34.75,149.7167,60.62,64,100,12.12,AU,2022-09-08 02:44:12,moderate rain
258,258,Kaitangata,-46.2817,169.8464,51.46,53,28,4.47,NZ,2022-09-08 02:44:13,scattered clouds
261,261,Putina,-15.4667,-69.4333,46.31,69,4,3.65,PE,2022-09-08 02:44:15,clear sky
262,262,Sterlibashevo,53.4376,55.2578,48.34,58,100,9.75,RU,2022-09-08 02:44:15,overcast clouds
264,264,Alice Springs,-23.7,133.8833,69.35,24,0,8.05,AU,2022-09-08 02:44:17,clear sky
265,265,Bonavista,48.6499,-53.1147,55.2,78,100,17.94,CA,2022-09-08 02:44:17,light rain
266,266,Chuy,-33.6971,-53.4616,57.78,94,33,4.07,UY,2022-09-08 02:44:17,scattered clouds
269,269,Esperance,-33.8667,121.9,56.91,65,100,10.54,AU,2022-09-08 02:44:19,overcast clouds
270,270,Longyearbyen,78.2186,15.6401,40.84,87,75,6.91,SJ,2022-09-08 02:42:17,light rain
272,272,Snezhnogorsk,69.1933,33.2531,40.78,81,100,13.71,RU,2022-09-08 02:44:20,overcast clouds
277,277,Haines Junction,60.7522,-137.5108,53.55,43,97,11.5,CA,2022-09-08 02:45:25,overcast clouds
278,278,Linares,-35.85,-71.6,43.14,95,100,3.11,CL,2022-09-08 02:45:26,overcast clouds
279,279,Taltal,-25.4,-70.4833,53.92,82,33,1.86,CL,2022-09-08 02:45:26,scattered clouds
284,284,Peruibe,-24.32,-46.9983,63.82,93,9,2.55,BR,2022-09-08 02:45:30,clear sky
285,285,Svetlogorsk,52.6333,29.7333,48.72,84,100,4.7,BY,2022-09-08 02:45:30,overcast clouds
286,286,Cabra,37.4725,-4.4421,65.98,47,23,1.45,ES,2022-09-08 02:45:31,few clouds
287,287,Plouzane,48.3833,-4.6167,61.12,91,75,13.8,FR,2022-09-08 02:45:31,broken clouds
289,289,Viedma,-40.8135,-62.9967,46.74,71,100,14.27,AR,2022-09-08 02:45:32,overcast clouds
290,290,Zdvinsk,54.7021,78.661,52.29,57,27,19.64,RU,2022-09-08 02:45:33,scattered clouds
291,291,Port Macquarie,-31.4333,152.9167,66.88,59,75,15.66,AU,2022-09-08 02:45:34,broken clouds
294,294,Zhigansk,66.7697,123.3711,50.16,57,41,5.66,RU,2022-09-08 02:45:35,scattered clouds
296,296,Rocha,-34.4833,-54.3333,56.23,93,0,4.94,UY,2022-09-08 02:45:36,clear sky
297,297,Vostok,46.4856,135.8833,69.1,48,4,11.65,RU,2022-09-08 02:45:37,clear sky
298,298,Ust-Kuyga,70.0167,135.6,46.42,70,100,13.89,RU,2022-09-08 02:45:38,overcast clouds
301,301,Manzhouli,49.6,117.4333,69.42,34,27,6.08,CN,2022-09-08 02:45:39,scattered clouds
302,302,Kodiak,57.79,-152.4072,53.11,94,100,16.11,US,2022-09-08 02:45:40,moderate rain
303,303,Paldiski,59.3567,24.0531,41.25,93,100,2.3,EE,2022-09-08 02:45:40,overcast clouds
305,305,Ler,8.3018,30.1418,69.6,96,75,1.34,SS,2022-09-08 02:45:41,moderate rain
306,306,Nezhinka,51.7676,55.3694,42.96,75,40,4.47,RU,2022-09-08 02:45:42,scattered clouds
307,307,Hualmay,-11.0964,-77.6139,59.65,84,46,12.86,PE,2022-09-08 02:45:42,scattered clouds
308,308,Bom Despacho,-19.7364,-45.2522,61.29,65,0,9.46,BR,2022-09-08 02:45:43,clear sky
312,312,Fort Nelson,58.8053,-122.7002,56.79,67,75,4.61,CA,2022-09-08 02:41:22,broken clouds
314,314,Saldanha,-33.0117,17.9442,50.05,90,0,17.36,ZA,2022-09-08 02:45:46,clear sky
315,315,Menongue,-14.6585,17.691,57.63,31,0,4.65,AO,2022-09-08 02:45:46,clear sky
316,316,Teya,60.3778,92.6267,45.05,89,85,17.18,RU,2022-09-08 02:45:47,light rain
319,319,Aklavik,68.2191,-135.0107,44.04,71,100,6.96,CA,2022-09-08 02:42:19,overcast clouds
321,321,Senanga,-16.1167,23.2667,59.74,47,0,5.93,ZM,2022-09-08 02:45:49,clear sky
322,322,Formosa,-26.1775,-58.1781,67.98,64,0,8.05,AR,2022-09-08 02:46:50,clear sky
323,323,Cuzaplac,46.9667,23.2,57.51,87,90,3.6,RO,2022-09-08 02:46:50,overcast clouds
326,326,Trujillo,-8.116,-79.03,60.76,88,100,8.05,PE,2022-09-08 02:44:54,fog
327,327,General Roca,-39.0333,-67.5833,48.61,33,95,19.1,AR,2022-09-08 02:46:52,overcast clouds
331,331,Canavieiras,-15.675,-38.9472,67.96,88,81,6.58,BR,2022-09-08 02:46:54,broken clouds
334,334,Madimba,-10.4,40.3333,68.49,90,7,8.19,TZ,2022-09-08 02:46:57,clear sky
335,335,Shelburne,44.0787,-80.2041,58.3,76,0,2.01,CA,2022-09-08 02:46:37,clear sky
337,337,Tocopilla,-22.092,-70.1979,57.79,65,26,3.67,CL,2022-09-08 02:46:58,scattered clouds
339,339,De Aar,-30.6497,24.0123,52.54,14,0,3.4,ZA,2022-09-08 02:46:59,clear sky
341,341,Westport,41.1415,-73.3579,69.84,83,100,10.36,US,2022-09-08 02:45:56,overcast clouds
342,342,Chicama,-7.8447,-79.1469,59.54,83,81,6.42,PE,2022-09-08 02:47:02,broken clouds
343,343,Tselinnoye,53.0833,85.6667,58.6,39,59,17.47,RU,2022-09-08 02:47:02,broken clouds
344,344,Vryburg,-26.9566,24.7284,54.84,71,0,9.75,ZA,2022-09-08 02:47:03,clear sky
347,347,Ampanihy,-24.7,44.75,65.77,79,93,11.52,MG,2022-09-08 02:47:05,overcast clouds
349,349,Seymchan,62.8833,152.4333,51.3,79,100,17.76,RU,2022-09-08 02:47:06,light rain
351,351,Montepuez,-13.1256,38.9997,62.6,66,0,5.84,MZ,2022-09-08 02:47:07,clear sky
352,352,Two Hills,53.7169,-111.7518,55.89,82,96,4.61,CA,2022-09-08 02:45:14,overcast clouds
354,354,Kardla,58.9978,22.7492,52.03,71,100,6.04,EE,2022-09-08 02:47:08,overcast clouds
355,355,Abha,18.2164,42.5053,66.02,27,0,5.75,SA,2022-09-08 02:44:53,clear sky
357,357,Nanyamba,-10.6833,39.8333,60.82,97,2,3.38,TZ,2022-09-08 02:47:10,clear sky
359,359,Saint-Pierre,-21.3393,55.4781,69.91,64,100,4.61,RE,2022-09-08 02:47:11,overcast clouds
373,373,Ahipara,-35.1667,173.1667,57.29,65,100,1.23,NZ,2022-09-08 02:48:21,overcast clouds
374,374,Bambous Virieux,-20.3428,57.7575,68.25,73,75,3.44,MU,2022-09-08 02:48:21,light rain
377,377,Balakhta,55.38,91.6,60.17,50,97,19.06,RU,2022-09-08 02:48:23,overcast clouds
378,378,Talant,47.3369,5.0089,61.14,88,0,5.75,FR,2022-09-08 02:48:24,clear sky
379,379,Lebu,-37.6167,-73.65,43.75,71,35,5.88,CL,2022-09-08 02:48:12,scattered clouds
380,380,Yantzaza,-3.8278,-78.7594,65.59,93,99,1.95,EC,2022-09-08 02:48:24,overcast clouds
381,381,Severo-Kurilsk,50.6789,156.125,56.14,95,100,11.97,RU,2022-09-08 02:48:25,overcast clouds
382,382,Villa Maria,-32.4075,-63.2402,61.83,44,0,11.39,AR,2022-09-08 02:48:26,clear sky
384,384,Valparaiso,-33.0393,-71.6273,53.47,94,100,4.61,CL,2022-09-08 02:47:05,overcast clouds
387,387,Hammerfest,70.6634,23.6821,46.85,100,75,17.27,NO,2022-09-08 02:48:29,broken clouds
390,390,Sept-Iles,50.2001,-66.3821,55.4,92,75,5.01,CA,2022-09-08 02:47:37,broken clouds
391,391,Leningradskiy,69.3833,178.4167,47.08,51,11,11.48,RU,2022-09-08 02:48:30,few clouds
393,393,Cap-Aux-Meules,47.3821,-61.8597,59.05,77,40,3.44,CA,2022-09-08 02:48:32,scattered clouds
395,395,Vestmanna,62.1564,-7.1664,54.52,88,100,10.36,FO,2022-09-08 02:48:33,light rain
399,399,Inyonga,-6.7167,32.0667,68.4,46,95,8.16,TZ,2022-09-08 02:48:35,overcast clouds
400,400,Hamilton,39.1834,-84.5333,67.57,86,0,0.0,US,2022-09-08 02:44:24,clear sky
401,401,Severnyy-Kospashskiy,59.0925,57.8008,40.86,98,100,3.29,RU,2022-09-08 02:48:35,overcast clouds
405,405,Bahia Blanca,-38.7196,-62.2724,46.2,79,100,10.18,AR,2022-09-08 02:49:38,overcast clouds
406,406,Kamenka,51.3223,42.7678,45.14,54,100,8.72,RU,2022-09-08 02:49:38,overcast clouds
409,409,Verkhoturye,58.8627,60.8054,44.01,92,88,5.82,RU,2022-09-08 02:49:40,overcast clouds
412,412,Pangnirtung,66.1451,-65.7125,46.99,62,100,10.27,CA,2022-09-08 02:47:43,overcast clouds
413,413,Chauny,49.6151,3.2186,56.86,97,66,9.73,FR,2022-09-08 02:49:41,broken clouds
414,414,Srednekolymsk,67.45,153.6833,58.8,50,100,17.45,RU,2022-09-08 02:49:42,overcast clouds
415,415,Bloemfontein,-29.1211,26.214,49.48,66,0,4.61,ZA,2022-09-08 02:49:42,clear sky
417,417,Indaparapeo,19.7833,-100.9667,63.28,82,100,4.61,MX,2022-09-08 02:49:44,light rain
419,419,Bilibino,68.0546,166.4372,56.03,36,45,5.37,RU,2022-09-08 02:49:45,scattered clouds
420,420,Ambovombe,-25.1667,46.0833,66.54,85,79,15.9,MG,2022-09-08 02:49:45,broken clouds
422,422,Aldan,58.6031,125.3894,41.63,85,99,14.63,RU,2022-09-08 02:49:46,light rain
423,423,Lac-Megantic,45.5834,-70.8823,56.55,91,0,2.28,CA,2022-09-08 02:49:47,clear sky
426,426,Sturgis,41.7992,-85.4192,65.86,88,0,0.0,US,2022-09-08 02:49:48,clear sky
427,427,San Juan,-31.5375,-68.5364,61.59,21,78,24.11,AR,2022-09-08 02:49:49,broken clouds
429,429,Neuquen,-38.9516,-68.0591,51.69,25,0,11.5,AR,2022-09-08 02:46:36,clear sky
434,434,Shira,54.4911,89.9531,57.15,48,71,24.52,RU,2022-09-08 02:49:52,broken clouds
441,441,Strezhevoy,60.7333,77.5889,43.56,90,100,15.55,RU,2022-09-08 02:49:55,light rain
443,443,Tymovskoye,50.8456,142.655,66.72,59,13,16.17,RU,2022-09-08 02:49:56,few clouds
445,445,Garden City,42.3256,-83.331,68.68,70,0,0.0,US,2022-09-08 02:45:21,clear sky
447,447,Konya,38.1667,32.5,53.08,58,0,0.51,TR,2022-09-08 02:49:57,clear sky
450,450,Havre-Saint-Pierre,50.2334,-63.5986,52.16,100,0,8.05,CA,2022-09-08 02:50:59,clear sky
452,452,Mbouda,5.6258,10.2552,62.24,96,99,4.29,CM,2022-09-08 02:51:00,overcast clouds
454,454,Kenai,60.5544,-151.2583,55.49,88,100,4.61,US,2022-09-08 02:51:01,light rain
459,459,Starokucherganovka,46.3248,47.9555,48.13,87,0,0.0,RU,2022-09-08 02:51:05,clear sky
460,460,Podgorenskiy,50.405,39.6429,45.55,59,98,7.25,RU,2022-09-08 02:51:05,overcast clouds
461,461,Husavik,66.0449,-17.3389,50.18,85,79,3.38,IS,2022-09-08 02:51:06,broken clouds
463,463,Inuvik,68.3499,-133.7218,47.16,70,75,6.91,CA,2022-09-08 02:51:07,broken clouds
465,465,Biryusinsk,55.9634,97.8235,69.55,50,100,16.53,RU,2022-09-08 02:51:08,overcast clouds
466,466,Kuopio,62.8924,27.677,40.95,87,100,5.75,FI,2022-09-08 02:51:09,overcast clouds
469,469,Bukachacha,52.9833,116.9167,60.17,34,66,4.72,RU,2022-09-08 02:51:12,broken clouds
472,472,Lavrentiya,65.5833,-171.0,43.5,90,100,5.5,RU,2022-09-08 02:51:13,light rain
473,473,Ungheni,47.2042,27.7958,57.85,88,0,0.0,MD,2022-09-08 02:51:14,clear sky
474,474,Genhe,50.7833,121.5167,62.46,31,0,7.78,CN,2022-09-08 02:51:14,clear sky
475,475,Khani,41.9563,42.9566,45.97,71,1,5.23,GE,2022-09-08 02:51:15,clear sky
476,476,Santiago De Cao,-7.9589,-79.2392,60.93,88,100,8.05,PE,2022-09-08 02:51:16,fog
477,477,Qaracala,39.8132,48.9523,67.66,67,100,7.4,AZ,2022-09-08 02:51:17,overcast clouds
481,481,Bertoua,4.5833,13.6833,67.59,99,100,3.02,CM,2022-09-08 02:51:19,light rain
482,482,Bereda,43.2686,-7.5406,61.41,100,100,3.8,ES,2022-09-08 02:51:20,overcast clouds
484,484,Abancay,-13.6339,-72.8814,55.27,73,11,3.4,PE,2022-09-08 02:51:21,few clouds
487,487,Vesoul,47.5833,5.8333,63.41,97,100,7.63,FR,2022-09-08 02:51:24,overcast clouds
488,488,Zambezi,-13.5432,23.1047,61.23,38,0,8.03,ZM,2022-09-08 02:51:24,clear sky
489,489,Dnestrovsc,46.6222,29.9133,59.09,92,53,8.86,MD,2022-09-08 02:51:25,broken clouds
490,490,Mathathane,-22.2687,28.7495,54.36,88,0,4.94,BW,2022-09-08 02:51:25,clear sky
491,491,Berdigestyakh,62.0989,126.6992,50.67,63,92,15.3,RU,2022-09-08 02:51:26,overcast clouds
494,494,Alpena,45.0617,-83.4327,67.06,88,0,0.0,US,2022-09-08 02:51:29,clear sky
496,496,Ust-Nera,64.5667,143.2,47.68,86,100,4.88,RU,2022-09-08 02:52:30,overcast clouds
497,497,George,-33.963,22.4617,53.29,59,2,3.67,ZA,2022-09-08 02:52:30,clear sky
498,498,Primorsk,46.7348,36.3443,50.43,51,0,4.23,UA,2022-09-08 02:52:31,clear sky
501,501,Bundibugyo,0.7414,30.0417,65.93,84,100,1.77,UG,2022-09-08 02:52:32,overcast clouds
503,503,Northam,51.0333,-4.2167,59.4,96,88,13.42,GB,2022-09-08 02:52:33,light rain
507,507,Caohai,26.8661,104.2841,66.29,55,10,5.3,CN,2022-09-08 02:52:35,clear sky
508,508,Ondarroa,43.3167,-2.4167,61.79,85,94,3.36,ES,2022-09-08 02:52:35,overcast clouds
511,511,Kidodi,-7.6036,37.0044,68.13,79,65,1.14,TZ,2022-09-08 02:52:37,broken clouds
513,513,Chancay,-11.5714,-77.2672,59.02,85,85,9.19,PE,2022-09-08 02:50:21,overcast clouds
516,516,Kalmar,56.6616,16.3616,44.53,93,20,3.44,SE,2022-09-08 02:52:38,few clouds
517,517,Caravelas,-17.7125,-39.2481,68.85,72,100,6.64,BR,2022-09-08 02:52:39,overcast clouds
518,518,Gondar,12.6,37.4667,55.54,82,96,3.42,ET,2022-09-08 02:52:40,overcast clouds
519,519,Truro,50.2653,-5.0544,60.08,94,20,12.66,GB,2022-09-08 02:52:40,few clouds
520,520,Ciortesti,46.9,27.8333,56.52,76,24,2.39,RO,2022-09-08 02:52:41,few clouds
522,522,Komsomolets,53.7453,62.0708,46.13,67,54,8.37,KZ,2022-09-08 02:52:42,broken clouds
523,523,Antofagasta,-23.65,-70.4,56.48,79,51,1.86,CL,2022-09-08 02:49:51,broken clouds
526,526,Flin Flon,54.7682,-101.865,62.04,44,95,7.72,CA,2022-09-08 02:52:44,overcast clouds
528,528,Lasa,46.6166,10.7002,65.28,95,100,4.65,IT,2022-09-08 02:52:44,light rain
529,529,Christchurch,-43.5333,172.6333,55.94,64,75,10.36,NZ,2022-09-08 02:52:45,broken clouds
530,530,Vanavara,60.34,102.2797,49.98,97,100,14.27,RU,2022-09-08 02:52:46,moderate rain
533,533,Kologriv,58.8275,44.3178,42.55,96,100,6.58,RU,2022-09-08 02:52:47,overcast clouds
535,535,Paraiso,9.8383,-83.8656,68.88,100,100,1.41,CR,2022-09-08 02:52:48,overcast clouds
536,536,Orvault,47.271,-1.6219,64.65,91,75,4.61,FR,2022-09-08 02:52:48,broken clouds
537,537,Semey,50.4111,80.2275,61.02,41,0,6.71,KZ,2022-09-08 02:52:49,clear sky
538,538,Ostersund,63.1792,14.6357,48.65,87,100,10.36,SE,2022-09-08 02:52:49,overcast clouds
545,545,Qaqortoq,60.7167,-46.0333,43.52,91,95,2.73,GL,2022-09-08 02:53:54,overcast clouds
546,546,Paternion,46.7142,13.6361,64.8,98,66,3.02,AT,2022-09-08 02:53:54,broken clouds
549,549,Batemans Bay,-35.7167,150.1833,64.09,81,99,9.44,AU,2022-09-08 02:53:56,moderate rain
552,552,Kedrovyy,56.1667,91.8167,59.41,56,63,16.96,RU,2022-09-08 02:53:57,broken clouds
553,553,Krasnogvardeyskiy,57.3793,62.3195,42.6,85,76,5.7,RU,2022-09-08 02:53:58,broken clouds
555,555,Abalak,58.1286,68.5944,43.2,91,100,7.05,RU,2022-09-08 02:53:59,overcast clouds
562,562,Nurota,40.5614,65.6886,67.93,23,0,9.1,UZ,2022-09-08 02:54:02,clear sky
566,566,Mutoko,-17.397,32.2268,47.95,89,0,4.72,ZW,2022-09-08 02:54:05,clear sky
571,571,Betare Oya,5.6,14.0833,66.09,99,100,1.41,CM,2022-09-08 02:54:08,moderate rain
573,573,Belyy Yar,53.6039,91.3903,67.89,32,0,20.13,RU,2022-09-08 02:54:09,clear sky
574,574,Ndele,8.4109,20.6473,68.9,98,100,1.59,CF,2022-09-08 02:54:09,moderate rain
576,576,Bracebridge,45.0334,-79.3163,59.32,100,0,0.0,CA,2022-09-08 02:54:10,clear sky
578,578,Berkovica,44.6156,18.4294,61.11,89,29,4.36,BA,2022-09-08 02:54:12,scattered clouds
579,579,Belmonte,-15.8631,-38.8828,69.98,81,85,10.4,BR,2022-09-08 02:54:12,overcast clouds
581,581,Prieska,-29.6641,22.7474,59.0,14,0,5.01,ZA,2022-09-08 02:54:15,clear sky
582,582,Dunda,-8.1167,34.25,58.37,70,7,3.0,TZ,2022-09-08 02:54:15,clear sky
585,585,Prince Rupert,54.3161,-130.3201,57.29,88,100,20.71,CA,2022-09-08 02:50:34,overcast clouds
587,587,La Ronge,55.1001,-105.2842,62.85,55,100,13.8,CA,2022-09-08 02:55:18,overcast clouds
589,589,Fairbanks,64.8378,-147.7164,60.76,66,75,3.44,US,2022-09-08 02:50:53,broken clouds
592,592,Requena,39.4883,-1.1004,69.78,39,60,6.22,ES,2022-09-08 02:55:21,broken clouds
593,593,Dondo,-19.6094,34.7431,65.62,89,34,1.57,MZ,2022-09-08 02:55:21,scattered clouds
595,595,Kodinsk,58.6881,99.1844,60.1,91,100,11.63,RU,2022-09-08 02:55:23,overcast clouds
596,596,Monroe,43.1501,-77.6831,66.58,95,75,0.0,US,2022-09-08 02:54:05,broken clouds
599,599,Romny,50.751,33.4747,42.06,65,28,5.68,UA,2022-09-08 02:55:25,scattered clouds
604,604,Wladyslawowo,54.7909,18.4009,51.35,67,100,11.77,PL,2022-09-08 02:55:28,overcast clouds
606,606,Herouville-Saint-Clair,49.2109,-0.3065,61.79,88,75,8.05,FR,2022-09-08 02:55:29,broken clouds
608,608,Floro,61.5996,5.0328,57.16,82,99,11.5,NO,2022-09-08 02:55:30,overcast clouds
611,611,Andenes,69.3143,16.1194,46.38,87,100,3.44,NO,2022-09-08 02:55:32,overcast clouds
613,613,Bururi,-3.85,29.6333,59.09,77,53,2.98,BI,2022-09-08 02:55:34,broken clouds
617,617,Tsarychanka,48.937,34.4786,46.71,57,2,6.13,UA,2022-09-08 02:55:36,clear sky
618,618,Beloha,-25.1667,45.05,67.19,75,100,12.03,MG,2022-09-08 02:55:36,overcast clouds
619,619,Sasolburg,-26.8136,27.817,53.2,73,0,5.79,ZA,2022-09-08 02:55:37,clear sky
620,620,Aykhal,66.0,111.5,41.05,64,63,13.47,RU,2022-09-08 02:55:38,broken clouds
624,624,Hofn,64.2539,-15.2082,52.23,87,100,4.83,IS,2022-09-08 02:55:40,overcast clouds
626,626,Lokosovo,61.1333,74.8167,40.98,87,100,11.16,RU,2022-09-08 02:55:41,overcast clouds
631,631,Khuzhir,53.1939,107.3397,54.7,78,94,11.18,RU,2022-09-08 02:55:44,overcast clouds
636,636,Linqiong,30.4159,103.4609,67.82,84,100,0.54,CN,2022-09-08 02:56:46,overcast clouds
637,637,Bronnoysund,65.4625,12.1997,53.6,66,72,14.97,NO,2022-09-08 02:56:47,broken clouds
639,639,Grakhovo,56.0502,51.9676,45.25,89,100,6.46,RU,2022-09-08 02:56:47,overcast clouds
640,640,Fort Saint James,54.4333,-124.25,52.93,62,80,9.91,CA,2022-09-08 02:56:48,broken clouds
641,641,Zemio,5.0314,25.1361,66.7,98,100,2.48,CF,2022-09-08 02:56:49,light rain
643,643,Whitianga,-36.8333,175.7,56.3,61,48,3.4,NZ,2022-09-08 02:56:50,scattered clouds
644,644,Faya,18.3851,42.4509,66.31,32,3,5.46,SA,2022-09-08 02:55:38,clear sky
645,645,Allauch,43.3357,5.482,67.35,31,91,4.14,FR,2022-09-08 02:56:50,overcast clouds
646,646,Sorland,67.667,12.6934,49.86,72,17,10.8,NO,2022-09-08 02:56:51,few clouds
649,649,Sambava,-14.2667,50.1667,68.7,75,97,11.88,MG,2022-09-08 02:56:52,overcast clouds
650,650,Barcs,45.96,17.4586,62.91,94,62,3.56,HU,2022-09-08 02:56:53,broken clouds
651,651,Roma,43.2128,-75.4557,65.88,91,62,1.14,US,2022-09-08 02:56:54,broken clouds
652,652,Kindersley,51.4668,-109.1682,69.82,40,100,23.02,CA,2022-09-08 02:56:54,overcast clouds
660,660,Mount Gambier,-37.8333,140.7667,58.91,94,100,9.22,AU,2022-09-08 02:56:58,light intensity shower rain
662,662,Coolum Beach,-26.5333,153.1,68.11,78,89,1.01,AU,2022-09-08 02:56:59,light rain
666,666,Whyalla,-33.0333,137.5833,64.72,52,49,21.47,AU,2022-09-08 02:57:01,scattered clouds
667,667,Tianpeng,30.9866,103.9393,66.67,80,100,2.98,CN,2022-09-08 02:57:02,overcast clouds
668,668,Bloomsburg,41.0037,-76.4549,66.11,97,100,2.35,US,2022-09-08 02:57:03,overcast clouds
